[
  {
    "id": "466-r",
    "line": "L2r",
    "name": "Badalona Pompeu Fabra",
    "accessibility": "Adaptada",
    "zone": "Zona 1",
    "connections": "",
    "lat": "41.4491346834602",
    "lon": "2.24417083038483"
  },
  {
    "id": "364-r",
    "line": "L2r",
    "name": "Pep Ventura",
    "accessibility": "Adaptada",
    "zone": "Zona 1",
    "connections": "",
    "lat": "41.4439616490883",
    "lon": "2.23799996153456"
  },
  {
    "id": "363-r",
    "line": "L2r",
    "name": "Gorg",
    "accessibility": "Adaptada",
    "zone": "Zona 1",
    "connections": "L10-T4-T5-T6",
    "lat": "41.4402793240193",
    "lon": "2.23346831479129"
  },
  {
    "id": "362-r",
    "line": "L2r",
    "name": "Sant Roc",
    "accessibility": "Adaptada",
    "zone": "Zona 1",
    "connections": "T4-T5-T6",
    "lat": "41.4358194300033",
    "lon": "2.2285794819181"
  },
  {
    "id": "361-r",
    "line": "L2r",
    "name": "Artigues Sant Adrià",
    "accessibility": "Adaptada",
    "zone": "Zona 1",
    "connections": "",
    "lat": "41.4338278181095",
    "lon": "2.21768382981863"
  },
  {
    "id": "360-r",
    "line": "L2r",
    "name": "Verneda",
    "accessibility": "Adaptada",
    "zone": "Zona 1",
    "connections": "",
    "lat": "41.4300427497672",
    "lon": "2.20990191350488"
  },
  {
    "id": "359-r",
    "line": "L2r",
    "name": "La Pau",
    "accessibility": "Adaptada",
    "zone": "Zona 1",
    "connections": "L4",
    "lat": "41.4241469840362",
    "lon": "2.20558808922946"
  },
  {
    "id": "358-r",
    "line": "L2r",
    "name": "Sant Martí",
    "accessibility": "Adaptada",
    "zone": "Zona 1",
    "connections": "",
    "lat": "41.4191123676228",
    "lon": "2.20077638100069"
  },
  {
    "id": "357-r",
    "line": "L2r",
    "name": "Bac de Roda",
    "accessibility": "Adaptada",
    "zone": "Zona 1",
    "connections": "",
    "lat": "41.4151753337543",
    "lon": "2.19550432669064"
  },
  {
    "id": "356-r",
    "line": "L2r",
    "name": "Clot",
    "accessibility": "Adaptada",
    "zone": "Zona 1",
    "connections": "L1-R.1-R2-R.2N-R11",
    "lat": "41.4104525785804",
    "lon": "2.18693417757973"
  },
  {
    "id": "355-r",
    "line": "L2r",
    "name": "Encants",
    "accessibility": "Adaptada",
    "zone": "Zona 1",
    "connections": "",
    "lat": "41.4072864680062",
    "lon": "2.1827519784438"
  },
  {
    "id": "354-r",
    "line": "L2r",
    "name": "Sagrada Família",
    "accessibility": "Adaptada",
    "zone": "Zona 1",
    "connections": "L5",
    "lat": "41.4039969134632",
    "lon": "2.17514745470531"
  },
  {
    "id": "353-r",
    "line": "L2r",
    "name": "Monumental",
    "accessibility": "Adaptada",
    "zone": "Zona 1",
    "connections": "",
    "lat": "41.4004929554527",
    "lon": "2.17952263230581"
  },
  {
    "id": "352-r",
    "line": "L2r",
    "name": "Tetuan",
    "accessibility": "Adaptada",
    "zone": "Zona 1",
    "connections": "",
    "lat": "41.3948996769105",
    "lon": "2.17553562920688"
  },
  {
    "id": "351-r",
    "line": "L2r",
    "name": "Passeig de Gràcia",
    "accessibility": "Adaptada",
    "zone": "Zona 1",
    "connections": "L3-L4-R2-R.2N-R.2S-R11-R13-R14-R15-R16",
    "lat": "41.3894163760186",
    "lon": "2.16823683974007"
  },
  {
    "id": "350-r",
    "line": "L2r",
    "name": "Universitat",
    "accessibility": "Adaptada",
    "zone": "Zona 1",
    "connections": "L1",
    "lat": "41.3847201846007",
    "lon": "2.16392260234239"
  },
  {
    "id": "349-r",
    "line": "L2r",
    "name": "Sant Antoni",
    "accessibility": "Adaptada",
    "zone": "Zona 1",
    "connections": "",
    "lat": "41.3798587329518",
    "lon": "2.1632887586535"
  },
  {
    "id": "348-r",
    "line": "L2r",
    "name": "Paral.lel",
    "accessibility": "Adaptada",
    "zone": "Zona 1",
    "connections": "L3-FUNI_MONTJUIC",
    "lat": "41.375039139559",
    "lon": "2.16913024692333"
  }
]
