[
  {
    "id": "447-r",
    "line": "L3r",
    "name": "Trinitat Nova",
    "accessibility": "Adaptada",
    "zone": "Zona 1",
    "connections": "L4-L11",
    "lat": "41.4495315866864",
    "lon": "2.18411257661403"
  },
  {
    "id": "446-r",
    "line": "L3r",
    "name": "Roquetes",
    "accessibility": "Adaptada",
    "zone": "Zona 1",
    "connections": "",
    "lat": "41.4476983787111",
    "lon": "2.17610978451663"
  },
  {
    "id": "387-r",
    "line": "L3r",
    "name": "Canyelles",
    "accessibility": "Adaptada",
    "zone": "Zona 1",
    "connections": "",
    "lat": "41.4417702469479",
    "lon": "2.16633743592508"
  },
  {
    "id": "386-r",
    "line": "L3r",
    "name": "Valldaura",
    "accessibility": "Adaptada",
    "zone": "Zona 1",
    "connections": "",
    "lat": "41.4380515005838",
    "lon": "2.15693039004997"
  },
  {
    "id": "385-r",
    "line": "L3r",
    "name": "Mundet",
    "accessibility": "Adaptada",
    "zone": "Zona 1",
    "connections": "",
    "lat": "41.4357688982928",
    "lon": "2.14859090896243"
  },
  {
    "id": "365-r",
    "line": "L3r",
    "name": "Montbau",
    "accessibility": "Adaptada",
    "zone": "Zona 1",
    "connections": "",
    "lat": "41.4306544208465",
    "lon": "2.14505193131497"
  },
  {
    "id": "366-r",
    "line": "L3r",
    "name": "Vall d'Hebrón",
    "accessibility": "Adaptada",
    "zone": "Zona 1",
    "connections": "L5",
    "lat": "41.4252970069324",
    "lon": "2.14256930175703"
  },
  {
    "id": "367-r",
    "line": "L3r",
    "name": "Penitents",
    "accessibility": "Adaptada",
    "zone": "Zona 1",
    "connections": "",
    "lat": "41.4183305594342",
    "lon": "2.14098280337625"
  },
  {
    "id": "368-r",
    "line": "L3r",
    "name": "Vallcarca",
    "accessibility": "Projecte",
    "zone": "Zona 1",
    "connections": "",
    "lat": "41.4120164709601",
    "lon": "2.14432244155947"
  },
  {
    "id": "369-r",
    "line": "L3r",
    "name": "Lesseps",
    "accessibility": "Adaptada",
    "zone": "Zona 1",
    "connections": "",
    "lat": "41.4057005854403",
    "lon": "2.15048581458015"
  },
  {
    "id": "370-r",
    "line": "L3r",
    "name": "Fontana",
    "accessibility": "Adaptada",
    "zone": "Zona 1",
    "connections": "",
    "lat": "41.4020175545979",
    "lon": "2.15305426943399"
  },
  {
    "id": "388-r",
    "line": "L3r",
    "name": "Diagonal",
    "accessibility": "Adaptada",
    "zone": "Zona 1",
    "connections": "L5-L6-L7-S1-S2-S5-S55",
    "lat": "41.3959157261745",
    "lon": "2.16007069012956"
  },
  {
    "id": "371-r",
    "line": "L3r",
    "name": "Passeig de Gràcia",
    "accessibility": "Construcció",
    "zone": "Zona 1",
    "connections": "L2-L4-R2-R.2N-R.2S-R11-R13-R14-R15-R16",
    "lat": "41.3916130953018",
    "lon": "2.16538461758049"
  },
  {
    "id": "372-r",
    "line": "L3r",
    "name": "Catalunya",
    "accessibility": "Adaptada",
    "zone": "Zona 1",
    "connections": "L1-L6-L7-S1-S2-S5-S55-R.1-R3-R4-R7-R12",
    "lat": "41.3863398586716",
    "lon": "2.17010507438732"
  },
  {
    "id": "373-r",
    "line": "L3r",
    "name": "Liceu",
    "accessibility": "Adaptada",
    "zone": "Zona 1",
    "connections": "",
    "lat": "41.3814661024195",
    "lon": "2.1730492173041"
  },
  {
    "id": "374-r",
    "line": "L3r",
    "name": "Drassanes",
    "accessibility": "Adaptada",
    "zone": "Zona 1",
    "connections": "PORT",
    "lat": "41.3765658912591",
    "lon": "2.17567091764783"
  },
  {
    "id": "375-r",
    "line": "L3r",
    "name": "Paral.lel",
    "accessibility": "Adaptada",
    "zone": "Zona 1",
    "connections": "L2-FUNI_MONTJUIC",
    "lat": "41.3749237466418",
    "lon": "2.16913130219717"
  },
  {
    "id": "376-r",
    "line": "L3r",
    "name": "Poble Sec",
    "accessibility": "Projecte",
    "zone": "Zona 1",
    "connections": "",
    "lat": "41.3750274796757",
    "lon": "2.16027150654591"
  },
  {
    "id": "377-r",
    "line": "L3r",
    "name": "Espanya",
    "accessibility": "Projecte",
    "zone": "Zona 1",
    "connections": "L1-L8-S33-S4-S8-R5-R6",
    "lat": "41.3750503515188",
    "lon": "2.15160812165603"
  },
  {
    "id": "378-r",
    "line": "L3r",
    "name": "Tarragona",
    "accessibility": "Adaptada",
    "zone": "Zona 1",
    "connections": "",
    "lat": "41.3785431899842",
    "lon": "2.14532511165999"
  },
  {
    "id": "379-r",
    "line": "L3r",
    "name": "Sants Estació",
    "accessibility": "Adaptada",
    "zone": "Zona 1",
    "connections": "L5-R.1-R2-R.2N-R.2S-R3-R4-R7-R11-R12-R13-R14-R15-R16-ESTACIO_BUS",
    "lat": "41.381613567591",
    "lon": "2.14102524477169"
  },
  {
    "id": "380-r",
    "line": "L3r",
    "name": "Plaça del Centre",
    "accessibility": "Adaptada",
    "zone": "Zona 1",
    "connections": "",
    "lat": "41.3819459953545",
    "lon": "2.1358749331136"
  },
  {
    "id": "381-r",
    "line": "L3r",
    "name": "Les Corts",
    "accessibility": "Adaptada",
    "zone": "Zona 1",
    "connections": "",
    "lat": "41.3841243011195",
    "lon": "2.13089948651418"
  },
  {
    "id": "384-r",
    "line": "L3r",
    "name": "Maria Cristina",
    "accessibility": "Adaptada",
    "zone": "Zona 1",
    "connections": "T1-T2-T3",
    "lat": "41.3878658876322",
    "lon": "2.12588078854278"
  },
  {
    "id": "382-r",
    "line": "L3r",
    "name": "Palau Reial",
    "accessibility": "Adaptada",
    "zone": "Zona 1",
    "connections": "T1-T2-T3",
    "lat": "41.3860211631295",
    "lon": "2.11859030534594"
  },
  {
    "id": "383-r",
    "line": "L3r",
    "name": "Zona Universitària",
    "accessibility": "Construcció",
    "zone": "Zona 1",
    "connections": "T1-T2-T3",
    "lat": "41.3841404077719",
    "lon": "2.11116587365903"
  }
]
